City_ID,City,Lat,Lng,Max Temp,Humidity,Cloudiness,Wind Speed,Country,Date
0,luderitz,-26.6481,15.1594,18.97,84,3,3.04,NA,1706302174
1,thompson,55.7435,-97.8558,-4.91,93,100,4.63,CA,1706302174
2,puerto ayora,-0.7393,-90.3518,29.98,90,61,3.58,EC,1706302174
3,east london,-33.0153,27.9116,24.32,69,9,1.33,ZA,1706302174
4,xai-xai,-25.0519,33.6442,22.54,84,0,3.56,MZ,1706302175
5,madalena,41.2162,-8.3345,14.61,78,100,2.1,PT,1706302175
6,west island,-12.1568,96.8225,25.99,94,3,2.06,CC,1706302154
7,port-aux-francais,-49.35,70.2167,6.3,90,72,13.14,TF,1706302147
8,iqaluit,63.7506,-68.5145,-29.06,68,40,7.72,CA,1706302151
9,port mathurin,-19.6833,63.4167,27.55,84,100,5.52,MU,1706302176
10,edinburgh of the seven seas,-37.0676,-12.3116,17.0,83,13,5.09,SH,1706302162
11,dudinka,69.4058,86.1778,-13.54,92,100,7.6,RU,1706302176
12,longyearbyen,78.2186,15.6401,-0.09,64,0,5.14,SJ,1706302176
13,port elizabeth,-33.918,25.5701,20.73,81,0,4.47,ZA,1706302162
14,puerto natales,-51.7236,-72.4875,22.25,28,75,16.46,CL,1706302050
15,kernersville,36.1199,-80.0736,22.27,68,75,5.14,US,1706302123
16,camarinas,43.1311,-9.1817,12.18,81,100,3.43,ES,1706302177
17,nova sintra,14.8667,-24.7167,21.42,72,51,1.92,CV,1706302178
18,blackmans bay,-43.0167,147.3167,14.29,62,99,0.45,AU,1706302162
19,grytviken,-54.2811,-36.5092,4.9,81,96,2.38,GS,1706302148
20,luanda,-8.8368,13.2343,28.0,85,0,3.6,AO,1706302178
21,qaqortoq,60.7167,-46.0333,-24.62,74,0,3.07,GL,1706302178
22,richards bay,-28.783,32.0377,23.51,81,0,5.03,ZA,1706302179
23,isafjordur,66.0755,-23.124,-3.44,56,92,5.89,IS,1706302179
24,papatowai,-46.5619,169.4708,15.64,65,46,7.37,NZ,1706302162
25,tionk essil,12.7856,-16.5217,27.03,38,6,2.45,SN,1706302179
26,san matias,-16.3667,-58.4,34.5,33,0,0.34,BO,1706302180
27,vilyuchinsk,52.9306,158.4028,-6.71,87,100,1.55,RU,1706302180
28,nar'yan-mar,67.6713,53.087,-11.05,97,96,2.68,RU,1706302180
29,belyy yar,53.6039,91.3903,-29.06,83,74,2.0,RU,1706302180
30,yilan,24.757,121.753,13.92,92,100,0.52,TW,1706302180
31,papao,-17.75,-149.55,28.82,75,61,2.07,PF,1706302181
32,aktau,43.65,51.2,-0.68,68,100,8.69,KZ,1706302181
33,eravur town,7.7782,81.6038,24.11,77,4,1.93,LK,1706302181
34,port alfred,-33.5906,26.891,21.21,71,49,2.24,ZA,1706302181
35,alofi,-19.0595,-169.9187,27.94,89,75,6.17,NU,1706302182
36,waitangi,-43.9535,-176.5597,16.01,95,98,1.79,NZ,1706302147
37,stanley,54.868,-1.6985,6.27,83,40,4.63,GB,1706302155
38,leua,48.2156,18.6071,7.5,99,100,2.54,SK,1706302182
39,hammerfest,70.6634,23.6821,-5.75,73,40,5.66,NO,1706302182
40,brisas de zicatela,15.8369,-97.0419,30.29,58,0,2.06,MX,1706302183
41,akureyri,65.6835,-18.0878,-3.04,68,40,6.17,IS,1706302183
42,fale old settlement,-9.3852,-171.2468,29.63,70,99,6.44,TK,1706302183
43,baruun-urt,46.6806,113.2792,-23.5,92,4,4.14,MN,1706302183
44,utrik,11.2278,169.8474,25.42,59,70,2.88,MH,1706302183
45,vilyuysk,63.7553,121.6247,-40.0,100,97,1.79,RU,1706302161
46,naifaru,5.4444,73.3657,27.62,71,81,7.01,MV,1706302184
47,kidal,18.4411,1.4078,16.95,24,0,4.85,ML,1706302184
48,at taraf,25.3628,49.725,19.3,28,100,4.53,SA,1706302184
49,diego de almagro,-26.3667,-70.05,29.15,27,0,6.04,CL,1706302094
50,truth or consequences,33.1284,-107.2528,13.28,46,0,6.17,US,1706301961
51,mejit,10.2753,170.8646,25.16,69,90,3.63,MH,1706302185
52,hohenau,-27.0833,-55.75,29.65,32,7,4.34,PY,1706302185
53,pimentel,-6.8367,-79.9342,29.16,61,0,8.75,PE,1706302185
54,adamstown,-25.066,-130.1015,24.48,73,100,3.83,PN,1706302150
55,quellon,-43.1167,-73.6167,16.54,87,100,3.11,CL,1706302050
56,invercargill,-46.4,168.35,11.68,85,11,5.81,NZ,1706301931
57,tiksi,71.6872,128.8694,-28.2,97,52,4.65,RU,1706302148
58,awjilah,29.1081,21.2869,14.09,80,1,4.08,LY,1706302186
59,lihue,21.9789,-159.3672,22.42,89,100,5.66,US,1706302186
60,whitehorse,60.7161,-135.0538,-19.57,84,100,1.54,CA,1706302158
61,ribeira grande,38.5167,-28.7,17.65,94,75,7.6,PT,1706302187
62,katsuura,35.1333,140.3,4.85,59,48,4.96,JP,1706302187
63,touba,8.2833,-7.6833,26.08,17,0,0.91,CI,1706302187
64,hermanus,-34.4187,19.2345,22.11,80,100,4.46,ZA,1706301946
65,san juan,-31.5375,-68.5364,39.08,16,0,4.7,AR,1706302188
66,coquimbo,-29.9533,-71.3436,21.85,64,0,5.66,CL,1706302188
67,hilo,19.7297,-155.09,27.92,65,0,1.54,US,1706302188
68,saham,24.1722,56.8886,22.01,78,100,1.64,OM,1706302188
69,aykhal,66.0,111.5,-34.07,100,20,2.39,RU,1706302188
70,bethel,41.3712,-73.414,6.2,86,100,2.06,US,1706302154
71,rudnichnyy,59.617,52.4703,-10.94,96,100,2.17,RU,1706302189
72,ushuaia,-54.8,-68.3,18.81,42,0,3.09,AR,1706302189
73,chul'man,56.8479,124.9104,-31.44,100,98,0.34,RU,1706302189
74,anadyr,64.75,177.4833,-32.72,74,0,5.0,RU,1706302163
75,mhamid,29.82,-5.72,16.42,21,9,3.5,MA,1706302190
76,nchelenge,-9.3451,28.734,21.8,84,95,1.07,ZM,1706302190
77,yellowknife,62.456,-114.3525,-21.99,96,75,2.06,CA,1706302152
78,howrah,22.5892,88.3103,14.0,82,89,1.54,IN,1706302190
79,nova vicosa,-17.8919,-39.3719,25.01,95,100,2.73,BR,1706302191
80,lycksele,64.5954,18.6735,-2.07,86,100,3.6,SE,1706302191
81,pandan,14.0453,124.1694,23.34,76,100,6.7,PH,1706302191
82,albany,42.6001,-73.9662,5.61,83,100,0.45,US,1706302043
83,lebu,-37.6167,-73.65,18.5,81,58,2.86,CL,1706302061
84,puerto yuca,2.9383,-73.2083,35.84,26,60,3.39,CO,1706302192
85,avarua,-21.2078,-159.775,28.03,89,75,3.09,CK,1706302192
86,talnakh,69.4865,88.3972,-13.77,93,100,7.27,RU,1706302192
87,afaahiti,-17.75,-149.2833,27.93,80,45,3.92,PF,1706302192
88,kununurra,-15.7667,128.7333,25.99,94,40,0.0,AU,1706301979
89,cockburn town,21.4612,-71.1419,26.98,61,40,7.2,TC,1706302193
90,aparecida do taboado,-20.0867,-51.0936,28.92,37,10,4.82,BR,1706302193
91,smara,26.7384,-11.6719,20.43,18,0,5.17,EH,1706302193
92,ust-nera,64.5667,143.2,-40.87,98,61,0.61,RU,1706302193
93,kodiak,57.79,-152.4072,-4.27,68,0,7.2,US,1706302194
94,port lincoln,-34.7333,135.8667,15.16,69,10,3.16,AU,1706302194
95,luba,3.4568,8.5547,27.59,80,4,2.92,GQ,1706302194
96,mao,39.8885,4.2658,14.31,62,20,4.12,ES,1706302080
97,mildura,-34.2,142.15,13.93,80,97,6.15,AU,1706302194
98,ambo,-10.1308,-76.2047,23.41,64,86,4.09,PE,1706302195
99,prineville,44.2999,-120.8345,7.39,87,75,3.09,US,1706302195
100,wailua homesteads,22.0669,-159.378,22.08,86,100,5.66,US,1706302195
101,vila franca do campo,37.7167,-25.4333,18.27,99,100,5.33,PT,1706302195
102,palikir - national government center,6.9248,158.1611,25.47,88,100,2.06,FM,1706302195
103,puerto madero,14.7208,-92.4215,29.84,61,0,4.76,MX,1706302196
104,nemuro,43.3236,145.575,-1.44,74,100,11.74,JP,1706302196
105,alice springs,-23.7,133.8833,25.12,38,89,2.57,AU,1706302196
106,boguchany,58.3814,97.4531,-22.3,100,93,0.89,RU,1706302196
107,punta arenas,-53.15,-70.9167,22.01,32,0,5.14,CL,1706302164
108,arno,60.1167,18.6333,0.44,98,100,5.06,SE,1706302197
109,prado,-17.3411,-39.2208,24.68,97,100,4.75,BR,1706302150
110,plastun,44.7561,136.2939,-14.45,82,22,4.07,RU,1706302197
111,uturoa,-16.7333,-151.4333,28.11,73,40,1.9,PF,1706302197
112,kenai,60.5544,-151.2583,-17.17,80,0,2.57,US,1706302198
113,mata-utu,-13.2816,-176.1745,25.25,90,100,1.82,WF,1706302198
114,okhotsk,59.3833,143.3,-26.26,78,10,5.08,RU,1706302155
115,kavaratti,10.5669,72.642,26.85,68,68,2.18,IN,1706302198
116,haiku-pauwela,20.9219,-156.3051,25.7,77,40,5.66,US,1706302198
117,nyurba,63.2842,118.3319,-43.07,100,99,0.84,RU,1706302199
118,almazan,41.4865,-2.5309,9.17,51,100,1.28,ES,1706302199
119,kolonia,50.9333,6.95,6.65,74,75,3.6,DE,1706302199
120,al burayqah,30.4062,19.5739,16.91,73,6,5.61,LY,1706302199
121,sitka,57.0531,-135.33,8.94,61,100,6.17,US,1706302199
122,labrador city,52.9463,-66.9114,-9.05,67,75,4.12,CA,1706302200
123,qamdo,31.1667,97.2333,-12.35,47,93,1.91,CN,1706302153
124,nizhniy ingash,56.2,96.53,-23.08,100,79,1.18,RU,1706302200
125,leon,21.1167,-101.6667,25.66,15,0,6.8,MX,1706302133
126,carutapera,-1.195,-46.02,26.08,88,67,2.79,BR,1706302201
127,pariaman,-0.619,100.12,26.03,86,77,1.55,ID,1706302201
128,cabo san lucas,22.8909,-109.9124,28.67,55,0,3.6,MX,1706301832
129,tshabong,-26.05,22.45,29.93,32,93,1.04,BW,1706302201
130,paciran,-6.8767,112.3761,25.61,87,100,2.38,ID,1706302201
131,lerwick,60.1545,-1.1494,8.0,81,100,14.56,GB,1706302202
132,catoosa,36.189,-95.7458,9.1,92,100,2.06,US,1706302202
133,constantia,44.1833,28.65,2.61,70,95,5.97,RO,1706301898
134,new norfolk,-42.7826,147.0587,14.95,68,62,5.89,AU,1706302203
135,college,64.8569,-147.8028,-34.03,65,100,0.0,US,1706302203
136,lompoc,34.6391,-120.4579,22.61,56,75,1.54,US,1706302203
137,udachny,66.4167,112.4,-40.71,100,61,1.67,RU,1706302203
138,fang,19.9169,99.2145,14.8,99,24,0.17,TH,1706302204
139,tazovsky,67.4667,78.7,-21.66,100,100,2.81,RU,1706302204
140,jamestown,42.097,-79.2353,4.14,100,100,4.63,US,1706301971
141,badger,64.8,-147.5333,-34.07,69,75,0.0,US,1706302204
142,aasiaat,68.7098,-52.8699,-27.02,99,98,2.82,GL,1706302205
143,birzebbuga,35.8258,14.5269,14.53,82,20,2.57,MT,1706302205
144,flin flon,54.7682,-101.865,-6.09,93,100,2.06,CA,1706302205
145,alaghsas,17.0187,8.0168,16.6,25,26,8.31,NE,1706302205
146,mil'kovo,55.6078,37.7956,-3.73,97,95,1.19,RU,1706302206
147,georgetown,5.4112,100.3354,26.96,82,20,2.68,MY,1706302077
148,guiuan,11.0333,125.7247,26.11,67,100,10.74,PH,1706302206
149,vila velha,-20.3297,-40.2925,25.97,94,75,3.6,BR,1706302206
150,laminusa,5.5549,120.9136,26.98,77,100,5.7,PH,1706302207
151,balabac,7.9868,117.0645,26.66,77,100,9.24,PH,1706302207
152,hawaiian paradise park,19.5933,-154.9731,27.8,71,0,1.54,US,1706302157
153,sao vicente,-23.9631,-46.3919,25.1,60,20,2.24,BR,1706302207
154,weno,7.4515,151.8468,26.97,89,40,2.57,FM,1706302208
155,hovd,48.0056,91.6419,-22.34,86,5,0.36,MN,1706302208
156,barlig,17.0373,121.1038,9.0,94,87,0.36,PH,1706302208
157,coruripe,-10.1256,-36.1756,27.27,79,78,8.27,BR,1706302178
158,manokwari,-0.8667,134.0833,25.83,84,100,2.6,ID,1706302021
159,susuman,62.7833,148.1667,-41.12,100,83,0.45,RU,1706302209
160,thunder bay,48.4001,-89.3168,0.99,80,100,0.51,CA,1706302032
161,necochea,-38.5473,-58.7368,34.13,22,19,6.69,AR,1706302210
162,valparaiso,-33.0393,-71.6273,22.8,72,0,5.14,CL,1706301930
163,saipan,15.1355,145.701,23.39,88,100,6.69,MP,1706302210
164,tara,56.8944,74.371,-8.67,96,100,3.21,RU,1706302210
165,bilibino,68.0546,166.4372,-40.61,100,99,0.21,RU,1706302152
166,arkhangel'sk,64.5401,40.5433,-1.94,100,100,3.0,RU,1706302211
167,saint-francois,46.4154,3.9054,9.69,94,100,1.03,FR,1706302211
168,narasannapeta,18.4167,84.05,19.93,84,92,2.46,IN,1706302211
169,klyuchi,52.2667,79.1667,-9.94,87,100,3.57,RU,1706302212
170,parauapebas,-6.0675,-49.9022,27.99,83,40,0.51,BR,1706302212
171,bredasdorp,-34.5322,20.0403,21.27,76,100,3.09,ZA,1706302157
172,lensk,60.7253,114.9278,-35.12,100,99,1.17,RU,1706302213
173,kismayo,-0.3582,42.5454,26.49,88,100,4.39,SO,1706302213
174,sabang,5.8933,95.3214,27.35,81,100,6.32,ID,1706302213
175,crane,31.3974,-102.3501,17.04,33,28,9.06,US,1706302213
176,chuka,-0.3332,37.6459,17.7,84,100,2.01,KE,1706302213
177,atafu village,-8.5421,-172.5159,29.53,72,100,5.72,TK,1706302150
178,robbah,33.2797,6.9098,15.8,34,0,3.05,DZ,1706302214
179,ar ruseris,11.8659,34.3869,23.86,22,78,5.49,SD,1706302214
180,zhaoqing,23.0512,112.4597,10.36,72,100,1.43,CN,1706302214
181,khandyga,62.6667,135.6,-27.76,92,100,1.23,RU,1706302215
182,avanigadda,16.0215,80.9181,21.64,93,87,2.0,IN,1706302215
183,sidi merouane,36.5206,6.2611,14.71,65,14,0.39,DZ,1706302215
184,slutsk,53.0274,27.5597,-4.06,98,99,1.35,BY,1706302215
185,cape coast,5.1053,-1.2466,27.13,81,4,4.04,GH,1706302216
186,kapa'a,22.0752,-159.319,22.83,83,100,5.66,US,1706302160
187,taulaga,-11.0553,-171.0883,29.7,72,100,5.99,AS,1706302216
188,zavodskoy,43.4597,132.2922,-13.63,65,11,0.0,RU,1706302216
189,praia da vitoria,38.7333,-27.0667,17.14,94,40,6.62,PT,1706302217
190,parnu,58.3859,24.4971,-3.95,86,100,4.63,EE,1706302217
191,al jawf,29.5,38.75,10.18,46,1,4.48,SA,1706302217
192,murygino,58.7383,49.4582,-9.41,98,100,1.32,RU,1706302217
193,san juan de miraflores,-12.1629,-76.9635,27.29,69,89,4.33,PE,1706302217
194,vityazevo,44.9931,37.2719,2.23,100,0,1.0,RU,1706302218
195,khovd,48.0056,91.6419,-22.34,86,5,0.36,MN,1706302218
196,zalingei,12.9096,23.4741,19.29,21,99,2.58,SD,1706302218
197,nuuk,64.1835,-51.7216,-13.66,78,40,4.12,GL,1706302219
198,bubaque,11.2833,-15.8333,26.42,75,2,5.97,GW,1706302219
199,olonkinbyen,70.9221,-8.7187,-0.16,75,25,7.85,SJ,1706302219
200,daru,-9.0763,143.2092,25.53,83,48,5.3,PG,1706302219
201,cambria,35.5641,-121.0808,20.12,78,93,3.13,US,1706302219
202,tocopilla,-22.092,-70.1979,24.45,69,17,4.02,CL,1706302220
203,siocon,7.7061,122.1353,24.23,83,100,5.41,PH,1706302220
204,lindi,-10.0,39.7167,23.58,95,63,0.81,TZ,1706302220
205,kill devil hills,36.0307,-75.676,23.0,79,40,7.72,US,1706302220
206,nicoya,10.1483,-85.452,34.04,41,56,3.96,CR,1706302221
207,bouillon,49.7932,5.067,0.03,92,3,0.72,BE,1706302221
208,colonia,50.9333,6.95,6.65,74,75,3.6,DE,1706302066
209,carnarvon,-24.8667,113.6333,25.86,60,0,4.48,AU,1706302221
210,greymouth,-42.4667,171.2,16.75,89,54,5.76,NZ,1706302160
211,san patricio,28.017,-97.5169,19.05,85,96,2.41,US,1706302222
212,sandnessjoen,66.0217,12.6316,4.12,87,75,3.09,NO,1706302222
213,wenchang,30.904,118.4887,0.9,65,6,0.49,CN,1706302222
214,tougue,11.4667,-11.6,21.61,15,0,1.11,GN,1706302223
215,veinticinco de mayo,-35.4323,-60.1727,35.88,13,4,6.68,AR,1706302223
216,flying fish cove,-10.4217,105.6791,22.82,100,69,1.54,CX,1706302223
217,happy valley-goose bay,53.3168,-60.3315,-7.83,53,40,4.12,CA,1706302224
218,vadso,70.0744,29.7487,-2.91,86,75,6.17,NO,1706302224
219,archangelos,36.2149,28.1149,12.99,51,1,7.97,GR,1706302224
220,puerto baquerizo moreno,-0.9,-89.6,30.55,74,40,5.14,EC,1706302225
221,askoy,60.4092,5.226,4.31,100,20,1.54,NO,1706302225
222,filey,54.21,-0.2892,6.05,81,11,4.92,GB,1706302225
223,caribou,46.8606,-68.012,-3.34,87,100,2.06,US,1706302201
224,bela vista,-22.1089,-56.5211,32.18,29,10,4.28,BR,1706302226
225,iskateley,67.6803,53.1512,-11.1,97,97,2.68,RU,1706302227
226,tsiombe,-25.3,45.4833,22.15,75,0,6.58,MG,1706302227
227,al muwayh,22.4333,41.7583,14.3,57,100,4.5,SA,1706302227
228,abashiri,44.0213,144.2697,-3.49,93,100,10.04,JP,1706302228
229,baley,51.6,116.6333,-25.23,99,33,0.97,RU,1706302228
230,hasaki,35.7333,140.8333,0.16,52,3,4.76,JP,1706302159
231,pyapon,16.2833,95.6833,23.59,77,74,1.48,MM,1706302228
232,mutoko,-17.397,32.2268,18.56,77,86,1.98,ZW,1706302229
233,kapuskasing,49.4169,-82.4331,-1.95,86,100,1.54,CA,1706302229
234,knin,44.0439,16.2,7.29,71,100,1.27,HR,1706302230
235,juneau,58.3019,-134.4197,3.39,97,100,3.09,US,1706302230
236,freetown,8.484,-13.2299,28.84,58,0,5.66,SL,1706302231
237,tolanaro,-25.0319,46.9987,24.04,69,40,4.12,MG,1706302231
238,guajara mirim,-10.7828,-65.3394,24.21,97,100,0.9,BR,1706302231
239,magadan,59.5667,150.8,-20.03,76,100,3.51,RU,1706302231
240,port blair,11.6667,92.75,26.02,89,40,1.03,IN,1706302232
241,floro,61.5996,5.0328,5.98,75,20,6.69,NO,1706302232
242,tondano,1.3038,124.9112,20.05,92,95,0.9,ID,1706302232
243,cafayate,-26.073,-65.9761,25.81,53,75,4.33,AR,1706302233
244,polyarnyy,69.1989,33.4478,-9.48,95,100,5.13,RU,1706302233
245,fort bragg,35.139,-79.006,26.06,61,75,4.63,US,1706302233
246,waingapu,-9.6567,120.2641,25.92,87,90,3.09,ID,1706302234
247,aksakovo,43.25,27.8167,1.72,93,49,1.54,BG,1706302234
248,dubbo,-32.25,148.6167,22.07,49,75,4.63,AU,1706302234
249,bontang,0.1333,117.5,25.15,89,83,4.11,ID,1706301939
250,margaret river,-33.95,115.0667,11.8,81,0,3.92,AU,1706302151
251,la'ie,21.6477,-157.9253,27.98,65,5,2.24,US,1706302235
252,alta,69.9689,23.2717,-8.41,81,75,3.6,NO,1706302235
253,chardara,41.2547,67.9692,0.68,67,21,2.57,KZ,1706302235
254,ormara,25.2088,64.6357,21.94,70,38,2.24,PK,1706302235
255,tofol,5.3248,163.0078,27.5,69,99,5.15,FM,1706302235
256,midvagur,62.0511,-7.1939,5.46,87,75,4.12,FO,1706302236
257,sambava,-14.2667,50.1667,25.48,86,92,2.74,MG,1706302236
258,falmouth,50.1544,-5.0711,5.5,87,20,1.03,GB,1706302237
259,uray,60.1247,64.7758,-18.4,99,98,1.34,RU,1706302237
260,smithers,54.7804,-127.1743,3.18,87,100,2.57,CA,1706302237
261,deqen,29.9618,90.7188,-7.14,85,100,0.45,CN,1706302237
262,myitkyina,25.3833,97.4,11.73,81,76,1.07,MM,1706302237
263,cururupu,-1.8283,-44.8683,25.47,92,69,1.55,BR,1706302238
264,aksaray,38.3726,34.0254,-0.24,82,80,1.57,TR,1706302238
265,pionerskiy,54.9508,20.2275,2.86,99,100,8.94,RU,1706302238
266,malpica,43.3228,-8.8105,14.1,82,100,2.28,ES,1706302238
267,asau,46.4333,26.4,-2.49,93,83,1.9,RO,1706302239
268,bogra,24.85,89.3667,12.89,44,19,2.95,BD,1706302217
269,la ronge,55.1001,-105.2842,-3.86,63,75,4.12,CA,1706302239
270,puerto real,36.5282,-6.1901,16.25,94,0,1.54,ES,1706302239
271,ad dabbah,18.05,30.95,14.79,33,100,4.81,SD,1706302239
272,caleta de carquin,-11.0925,-77.6267,26.2,72,49,4.35,PE,1706302240
273,dryden,49.7833,-92.7503,-1.84,93,100,5.14,CA,1706302240
274,yatou,37.15,122.3833,-2.12,71,8,3.16,CN,1706302240
275,maracacume,-2.0428,-45.9592,25.74,91,77,2.06,BR,1706302240
276,hwacheon,38.1061,127.7067,-9.14,89,4,0.99,KR,1706302240
277,yamada,39.4667,141.95,0.15,78,7,2.9,JP,1706302241
278,hobyo,5.3505,48.5268,26.37,84,52,5.05,SO,1706302241
279,ulsteinvik,62.3432,5.8487,6.5,76,18,8.49,NO,1706302241
280,bandarbeyla,9.4942,50.8122,25.08,83,29,3.53,SO,1706302241
281,viedma,-40.8135,-62.9967,39.39,13,4,8.83,AR,1706302242
282,hithadhoo,-0.6,73.0833,28.21,68,72,6.38,MV,1706302242
283,taroa,8.7058,171.2275,25.84,75,100,4.98,MH,1706302242
284,chignahuapan,19.8333,-98.0333,22.07,27,2,2.28,MX,1706302242
285,bac lieu,9.285,105.7244,24.11,79,24,8.37,VN,1706302242
286,vorgashor,67.5833,63.95,-11.31,96,100,3.0,RU,1706302148
287,berdigestyakh,62.0989,126.6992,-25.05,96,100,3.62,RU,1706302243
288,karaton,-6.3424,106.1045,23.78,92,79,0.63,ID,1706302243
289,igarka,67.4667,86.5833,-13.56,93,100,8.75,RU,1706302243
290,muang xay,20.7,101.9833,13.79,99,55,0.46,LA,1706302243
291,portland,45.5234,-122.6762,9.93,92,100,6.69,US,1706301705
292,bridgewater,44.3835,-64.5155,0.82,90,100,4.63,CA,1706302244
293,port douglas,-16.4833,145.4667,27.34,84,99,2.09,AU,1706302107
294,betio village,1.358,172.9211,28.02,77,89,2.1,KI,1706302244
295,bikenibeu village,1.3673,173.1241,27.98,94,75,3.6,KI,1706302244
296,labytnangi,66.6572,66.4183,-15.32,97,100,0.09,RU,1706302245
297,poronaysk,49.2167,143.1167,-8.97,83,100,6.61,RU,1706302245
298,pasadena,29.6911,-95.2091,18.98,94,100,3.6,US,1706302219
299,kavieng,-2.5744,150.7967,27.67,76,92,0.7,PG,1706302245
300,macherla,16.4833,79.4333,20.71,93,46,2.05,IN,1706302245
301,greenville,35.6127,-77.3663,27.09,69,40,3.6,US,1706302019
302,keetmanshoop,-26.5833,18.1333,25.51,50,77,1.03,NA,1706302246
303,tadine,-21.55,167.8833,25.24,58,67,3.29,NC,1706302246
304,holbrook,40.8123,-73.0784,6.65,97,100,3.09,US,1706302067
305,lata,40.1629,-8.3327,11.15,77,100,1.62,PT,1706302247
306,copala,16.65,-98.9833,30.11,54,0,3.93,MX,1706302247
307,saint-pierre,-21.3393,55.4781,24.82,94,100,4.12,RE,1706302247
308,pisco,-13.7,-76.2167,28.03,61,0,9.77,PE,1706302247
309,kongsvinger,60.1905,11.9977,-0.63,92,100,2.25,NO,1706302248
310,lagoa seca,-7.1708,-35.8536,28.24,54,20,8.23,BR,1706302248
311,mana,5.6592,-53.7767,27.42,69,17,4.54,GF,1706302248
312,el galpon,-25.3807,-64.6526,34.04,27,0,2.87,AR,1706302248
313,dalhart,36.0595,-102.5133,4.01,93,100,8.23,US,1706302023
314,tralee,52.2704,-9.7026,8.62,81,100,6.27,IE,1706302249
315,cox's bazar,21.4532,91.9798,14.92,82,69,4.0,BD,1706302249
316,puerto armuelles,8.2833,-82.8667,32.99,63,62,1.34,PA,1706302217
317,mhangura,-16.8939,30.1683,16.75,79,4,0.62,ZW,1706302250
318,porkhov,57.765,29.5561,-4.17,98,99,1.47,RU,1706302250
319,myeik,12.4333,98.6,23.43,79,8,1.9,MM,1706302250
320,primorsko-akhtarsk,46.0497,38.1747,3.52,93,100,1.61,RU,1706302250
321,oodweyne,9.4092,45.064,22.63,47,25,2.04,SO,1706302251
322,sorong,-0.8833,131.25,26.76,80,64,4.12,ID,1706302251
323,botzingen,48.0764,7.7249,8.87,88,71,2.12,DE,1706302251
324,tremonton,41.7119,-112.1655,4.26,75,97,0.48,US,1706302251
325,saint-philippe,-21.3585,55.7679,24.77,89,72,4.31,RE,1706302252
326,maun,-19.9833,23.4167,25.98,44,0,1.54,BW,1706302252
327,chilmari,25.5559,89.6715,13.99,38,2,1.84,BD,1706302252
328,zyryanskoye,56.8306,86.6258,-10.28,92,100,2.53,RU,1706302253
329,chonchi,-42.6128,-73.8092,21.84,87,100,2.42,CL,1706302253
330,rakvere,59.3464,26.3558,-7.71,96,98,3.28,EE,1706302254
331,manchester,53.4809,-2.2374,6.19,80,20,3.09,GB,1706301823
332,lospalos,-8.5186,127.0025,23.54,88,100,5.8,TL,1706302254
333,kristiansund,63.1115,7.732,5.36,65,20,5.14,NO,1706302254
334,maceio,-9.6658,-35.7353,30.69,70,40,7.2,BR,1706302255
335,brandon,27.9378,-82.2859,28.18,75,40,2.06,US,1706302255
336,zhangye,38.9342,100.4517,-8.21,30,0,0.75,CN,1706302255
337,salinopolis,-0.6136,-47.3561,26.52,86,59,4.27,BR,1706302256
338,navlya,52.8281,34.4989,-0.15,99,100,1.14,RU,1706302256
339,macusani,-14.0833,-70.4333,7.56,84,100,1.83,PE,1706302256
340,las heras,-46.5419,-68.9359,27.61,22,98,16.61,AR,1706302257
341,cooranbong,-33.0833,151.4333,23.63,83,100,2.49,AU,1706302257
342,mar del plata,-38.0023,-57.5575,28.62,72,0,12.96,AR,1706302055
343,aldan,58.6031,125.3894,-23.09,98,100,2.22,RU,1706302257
344,ondjiva,-17.0667,15.7333,27.02,61,0,1.03,AO,1706302257
345,ilulissat,69.2167,-51.1,-19.99,41,100,4.12,GL,1706302258
346,nelson bay,-32.7167,152.15,23.94,78,100,4.92,AU,1706302258
347,ghorawal,24.7667,82.7833,11.0,50,99,0.64,IN,1706302258
348,makhambet,47.6667,51.5833,-5.98,87,96,5.02,KZ,1706302259
349,enewetak,11.3474,162.3373,25.75,62,100,5.87,MH,1706302259
350,swakopmund,-22.6833,14.5333,20.47,87,23,3.58,NA,1706302259
351,blythe,33.6103,-114.5964,19.25,27,0,7.2,US,1706302260
352,kurchatov,51.6601,35.6521,0.23,99,100,0.7,RU,1706302260
353,hadibu,12.65,54.0333,24.83,75,10,1.9,YE,1706302261
354,amahai,-3.3333,128.9167,25.62,82,100,2.75,ID,1706302261
355,wanning,18.8003,110.3967,18.49,89,100,3.52,CN,1706302261
356,borogontsy,62.6683,131.1683,-24.19,98,100,2.05,RU,1706302261
357,jeddah,21.5169,39.2192,19.92,49,40,2.06,SA,1706302262
358,colares,38.7992,-9.4469,17.43,84,0,3.13,PT,1706302262
359,urangan,-25.3,152.9,28.44,90,69,3.58,AU,1706302262
360,puerto deseado,-47.7503,-65.8938,29.74,24,8,12.52,AR,1706302263
361,kargil,34.5667,76.1,-8.65,67,63,2.36,IN,1706302263
362,attur,11.6,78.6167,20.62,93,13,1.29,IN,1706302263
363,ceerigaabo,10.6162,47.368,17.43,55,80,2.25,SO,1706302263
364,tympaki,35.0729,24.7685,13.98,66,1,0.89,GR,1706302264
365,dunay,42.8803,132.3375,-13.49,79,8,9.72,RU,1706302264
366,ouani,-12.1322,44.4258,26.66,75,33,2.59,KM,1706302264
367,oranjemund,-28.55,16.4333,18.57,90,13,2.72,NA,1706302264
368,terrace,54.5163,-128.6035,3.45,93,100,1.03,CA,1706302264
369,faya-largeau,17.9257,19.1043,16.83,29,88,9.13,TD,1706302265
370,gamboma,-1.8764,15.8644,26.31,55,78,1.32,CG,1706302265
371,el bayadh,33.6832,1.0193,11.83,27,0,1.49,DZ,1706302265
372,prince rupert,54.3161,-130.3201,8.05,87,100,18.01,CA,1706302265
373,forster,-32.1667,152.5167,22.94,88,100,4.08,AU,1706302266
374,atakpame,7.5333,1.1333,26.84,21,34,1.54,TG,1706302266
375,kingston,17.997,-76.7936,28.53,74,75,3.09,JM,1706302266
376,taganrog,47.2362,38.8969,0.59,97,100,2.15,RU,1706302266
377,ko pha ngan,9.7578,100.0291,24.81,76,15,7.1,TH,1706302267
378,azrou,33.4344,-5.2213,12.22,40,1,1.85,MA,1706302267
379,la sarre,48.8002,-79.1996,0.23,99,100,1.93,CA,1706302267
380,pangody,65.85,74.4859,-16.64,96,100,2.74,RU,1706302267
381,jayapura,-2.5333,140.7,25.66,94,100,4.4,ID,1706302149
382,damasak,13.0977,12.4952,19.18,30,99,5.07,NG,1706302268
383,port hedland,-20.3167,118.5667,26.03,78,100,6.69,AU,1706302268
384,baglung,28.2719,83.5898,5.26,68,14,2.56,NP,1706302269
385,mar''ina horka,53.509,28.147,0.12,96,95,1.2,BY,1706302269
386,cidreira,-30.1811,-50.2056,22.26,76,100,6.13,BR,1706302269
387,port macquarie,-31.4333,152.9167,25.5,85,96,4.84,AU,1706302269
388,kilindoni,-7.9139,39.6668,27.34,79,90,2.59,TZ,1706302270
389,ixtapa,20.7,-105.2,31.66,38,1,3.69,MX,1706302056
390,pont rouge,48.8833,-72.0825,-2.94,90,98,1.78,CA,1706302270
391,deder,9.3167,41.45,15.18,55,6,0.53,ET,1706302270
392,grimstad,58.3405,8.5934,4.95,66,2,7.57,NO,1706302114
393,boende,-0.2167,20.8667,28.38,50,99,0.59,CD,1706302271
394,albion park,-34.5667,150.7833,21.28,81,98,0.45,AU,1706302271
395,lagoa,39.05,-27.9833,16.23,88,100,6.62,PT,1706302271
396,camacupa,-12.0167,17.4833,17.82,78,100,1.43,AO,1706302272
397,wilmington,34.2257,-77.9447,25.95,76,0,5.66,US,1706302094
398,celestun,20.8667,-90.4,29.33,63,6,2.97,MX,1706302272
399,sokoni,-6.4333,39.55,27.25,84,34,3.25,TZ,1706302272
400,artigas,-30.4,-56.4667,25.9,52,4,5.07,UY,1706302273
401,bulungu,-4.55,18.6,24.3,79,63,0.5,CD,1706302273
402,jaguarari,-10.2639,-40.1958,22.11,92,100,0.96,BR,1706302273
403,dompu,-8.5356,118.4622,24.92,94,100,0.39,ID,1706302273
404,ulladulla,-35.35,150.4667,19.87,85,100,3.2,AU,1706302149
405,big bend,-26.8167,31.9333,25.05,69,3,0.0,SZ,1706302274
406,hamilton,39.1834,-84.5333,10.43,85,100,4.63,US,1706302154
407,acajutla,13.5928,-89.8275,30.31,63,21,3.92,SV,1706302274
408,tura,25.5198,90.2201,10.81,53,1,1.27,IN,1706302274
409,namibe,-15.1961,12.1522,24.8,81,100,4.17,AO,1706302274
410,cove,7.221,2.3402,27.61,22,17,1.18,BJ,1706302275
411,kataba,13.9833,44.3833,16.4,70,57,1.66,YE,1706302275
412,tazacorte,28.629,-17.9293,21.54,31,0,3.6,ES,1706302275
413,mtambile,-5.3833,39.7,26.43,88,59,2.71,TZ,1706302276
414,kachug,53.9606,105.8817,-22.19,100,93,0.45,RU,1706302276
415,san juan bautista,-14.0108,-75.7358,31.89,38,25,7.8,PE,1706302276
416,volosovo,59.4333,29.4833,-13.78,100,95,1.53,RU,1706302276
417,ta`u,-14.2336,-169.5144,28.83,79,100,6.03,AS,1706302277
418,andkhoy,36.9529,65.1238,8.29,68,100,7.25,AF,1706302277
419,chivhu,-19.0211,30.8922,14.47,79,7,2.67,ZW,1706302277
420,puerto quijarro,-17.7833,-57.7667,36.17,20,0,2.82,BO,1706302277
421,katsuren-haebaru,26.3369,127.8719,17.43,72,100,1.54,JP,1706302277
422,mombetsu,44.3525,143.3525,-3.77,94,100,6.35,JP,1706302278
423,porto novo,6.4965,2.6036,28.9,66,19,1.96,BJ,1706302009
424,modimolle,-24.7,28.4,22.95,56,67,2.36,ZA,1706302278
425,severo-yeniseyskiy,60.3725,93.0408,-19.05,97,100,1.76,RU,1706302278
426,lazaro cardenas,17.9583,-102.2,28.32,59,0,4.2,MX,1706302279
427,i-n-salah,27.1935,2.4607,17.77,22,0,7.88,DZ,1706302279
428,oroqen zizhiqi,50.5667,123.7167,-22.15,98,72,1.45,CN,1706302279
429,camiri,-20.05,-63.5167,34.88,29,40,1.54,BO,1706302279
430,lichtenburg,-26.152,26.1597,21.75,45,46,2.4,ZA,1706302279
431,karratha,-20.7377,116.8463,24.79,81,5,7.14,AU,1706302280
432,sur,22.5667,59.5289,21.12,76,100,7.15,OM,1706302280
433,palamas,39.4667,22.0833,4.9,60,0,0.42,GR,1706302280
434,leava,-14.3,-178.1667,28.23,77,100,8.52,WF,1706302280
435,la mira,18.035,-102.3266,29.07,55,0,4.14,MX,1706302281
436,newport,51.5877,-2.9984,6.49,85,59,3.94,GB,1706302208
437,usinsk,65.9939,57.5281,-8.85,95,98,5.81,RU,1706302281
438,urupes,-21.2017,-49.29,30.63,48,91,5.48,BR,1706302281
439,newman,37.3138,-121.0208,16.19,77,100,1.34,US,1706302282
440,turpan,42.9333,89.1667,-6.85,47,0,0.17,CN,1706302156
441,barah,13.7,30.3667,15.31,26,82,4.29,SD,1706302282
442,paka,4.6374,103.4368,26.96,83,53,3.09,MY,1706302282
443,ginir,7.1333,40.7,16.28,69,10,1.44,ET,1706302283
444,pemba,-12.974,40.5178,27.39,83,40,1.54,MZ,1706302283
445,edgewater,28.9889,-80.9023,27.03,78,75,3.6,US,1706302283
446,port saint john's,-31.6229,29.5448,24.29,90,11,3.89,ZA,1706302283
447,childress,34.4264,-100.204,7.14,100,100,3.09,US,1706302283
448,quezon,7.7303,125.0989,20.0,94,94,1.74,PH,1706302284
449,mangai,-4.05,19.5333,23.4,84,62,0.67,CD,1706302284
450,sechura,-5.5569,-80.8222,29.3,59,31,7.47,PE,1706302284
451,coxim,-18.5067,-54.76,33.2,29,72,4.14,BR,1706302284
452,lodja,-3.4833,23.4333,23.92,82,90,0.51,CD,1706302285
453,madingou,-4.1536,13.55,24.64,88,72,0.31,CG,1706302285
454,ancud,-41.8697,-73.8203,17.0,87,70,5.49,CL,1706302286
455,naama,33.2667,-0.3167,9.63,25,0,3.47,DZ,1706302286
456,remire-montjoly,4.9167,-52.2667,29.02,70,75,4.63,GF,1706302286
457,guerrero negro,27.9769,-114.0611,21.93,46,100,1.55,MX,1706302286
458,abohar,30.15,74.1833,10.12,19,77,2.15,IN,1706302287
459,troitskoye,52.9821,84.6757,-15.98,91,100,2.38,RU,1706302287
460,sabzevar,36.2126,57.6819,9.24,47,100,1.48,IR,1706302287
461,gandajika,-6.75,23.95,20.33,95,100,0.59,CD,1706302287
462,kurmuk,10.55,34.2833,23.26,28,66,2.91,SD,1706302288
463,masterton,-40.9597,175.6575,18.39,71,100,4.67,NZ,1706302288
464,xuddur,4.1213,43.8894,28.11,50,95,4.71,SO,1706302288
465,fort-shevchenko,44.5086,50.263,1.75,74,100,9.41,KZ,1706302289
466,bossangoa,6.4926,17.4552,24.18,23,79,1.89,CF,1706302289
467,ghazni,33.5536,68.4269,0.29,76,62,2.24,AF,1706302289
468,fisterra,42.9049,-9.2629,12.08,78,100,2.66,ES,1706302290
469,naze,28.3667,129.4833,12.51,64,89,4.2,JP,1706302290
470,portoferraio,42.8115,10.3146,11.72,87,100,1.54,IT,1706302291
471,vilhena,-12.7406,-60.1458,31.12,51,40,3.6,BR,1706302291
472,bengkulu,-3.8004,102.2655,24.78,89,99,1.81,ID,1706302291
473,verkhnevilyuysk,63.4453,120.3167,-41.87,100,99,1.84,RU,1706302292
474,agaro,7.85,36.65,18.03,75,50,1.19,ET,1706302292
475,teuva,62.4819,21.7416,-5.79,91,100,4.02,FI,1706302292
476,bhadrakh,21.0528,86.52,16.22,64,34,1.31,IN,1706302292
477,kailua-kona,19.6406,-155.9956,28.49,68,20,6.69,US,1706302156
478,waddan,29.1614,16.139,12.72,76,0,2.92,LY,1706302293
479,ujkigyos,46.5833,21.0333,3.44,70,100,2.58,HU,1706302293
480,isla del bosque,22.7333,-105.85,25.79,59,1,4.31,MX,1706302293
481,yeniseysk,58.4497,92.1703,-18.92,100,72,1.34,RU,1706302294
482,banda aceh,5.5577,95.3222,26.14,84,100,3.06,ID,1706302152
483,fonte boa,-2.4959,-66.2662,29.76,70,100,1.35,BR,1706302294
484,sao paulo de olivenca,-3.3783,-68.8725,26.0,89,100,1.91,BR,1706302294
485,nadi,-17.8,177.4167,27.0,78,20,1.03,FJ,1706302295
486,middelkerke,51.1558,2.8418,4.47,85,0,3.09,BE,1706302295
487,bamboo flat,11.7,92.7167,26.05,89,40,1.03,IN,1706302295
488,sommariva del bosco,44.7687,7.7853,10.08,81,98,1.26,IT,1706302295
489,roma,43.2128,-75.4557,7.27,97,100,1.54,US,1706302195
490,kyzylorda,44.8528,65.5092,-16.99,85,0,3.0,KZ,1706302296
491,altinekin,38.3078,32.8686,1.31,85,88,6.68,TR,1706302296
492,petropavlovsk-kamchatsky,53.0452,158.6483,-7.53,87,75,5.0,RU,1706302152
493,dimona,31.0667,35.0333,10.43,76,29,8.09,IL,1706302297
494,dakhla,23.6848,-15.958,21.01,68,6,3.09,EH,1706302263
495,twon-brass,4.3151,6.2418,27.93,56,3,3.02,NG,1706302297
496,eket,4.6412,7.9209,26.32,78,2,0.76,NG,1706302297
497,port-saint-louis-du-rhone,43.3833,4.8,16.13,55,0,10.29,FR,1706302298
498,umm kaddadah,13.6017,26.6876,16.45,26,100,6.77,SD,1706302298
499,kamenka,51.3223,42.7678,-1.23,97,100,4.38,RU,1706302298
500,botro,7.8525,-5.3106,28.71,19,1,1.72,CI,1706302298
501,abbeville,50.1,1.8333,5.98,85,23,2.09,FR,1706302298
502,ozernyy,55.5802,32.4127,-4.22,97,100,1.28,RU,1706302299
503,tyukhtet,56.5389,89.3011,-15.03,88,100,1.77,RU,1706302299
504,berezovo,63.9381,65.0419,-12.66,96,100,2.56,RU,1706302299
505,homer,59.6425,-151.5483,-7.07,62,75,3.09,US,1706302262
506,corn island,12.1694,-83.0418,27.45,79,13,8.46,NI,1706302300
507,touros,-5.1989,-35.4608,27.6,76,83,4.86,BR,1706302300
508,fada,9.5667,8.3,21.65,21,0,3.78,NG,1706302300
509,kanye,-24.9667,25.3327,25.12,38,88,1.94,BW,1706302300
510,mahina,-17.5065,-149.489,28.87,74,40,2.06,PF,1706302301
511,sao pedro do sul,-29.6206,-54.1789,26.36,60,33,3.42,BR,1706302301
512,imbituva,-25.23,-50.6044,16.83,80,98,2.08,BR,1706302301
513,veraval,20.9,70.3667,21.69,35,100,3.24,IN,1706302301
514,deoli,25.75,75.3833,13.16,44,100,1.32,IN,1706302301
515,undurkhaan,47.3194,110.6556,-22.76,88,2,2.06,MN,1706302302
516,sandpoint,48.2766,-116.5533,7.1,94,100,2.24,US,1706302302
517,nuku'alofa,-21.1333,-175.2,27.19,89,75,1.54,TO,1706302302
518,severobaykal'sk,55.65,109.3167,-14.72,89,100,0.74,RU,1706302302
519,mahibadhoo,3.7833,72.9667,27.77,71,97,7.27,MV,1706302303
520,north battleford,52.7834,-108.2847,-2.0,93,0,0.0,CA,1706302175
521,altai,46.3722,96.2583,-16.71,29,0,0.65,MN,1706302303
522,nadym,65.5333,72.5167,-14.3,93,100,2.94,RU,1706302303
523,bloemfontein,-29.1211,26.214,23.71,43,96,3.6,ZA,1706302303
524,brookings,44.3114,-96.7984,-0.49,97,100,2.06,US,1706302073
525,tateyama,34.9833,139.8667,5.61,56,50,6.82,JP,1706302304
526,keflavik,64.0049,-22.5624,-0.76,74,75,9.26,IS,1706302304
527,alo,7.4178,6.7371,27.55,18,8,1.57,NG,1706302304
528,dipayal,29.2608,80.94,7.48,54,40,1.83,NP,1706302304
529,tagiura,32.8817,13.3506,15.83,74,2,4.28,LY,1706302305
530,neryungri,56.6709,124.6491,-29.63,100,94,1.11,RU,1706302305
531,quang ngai,15.1167,108.8,20.87,89,98,1.91,VN,1706302305
532,fuxin,42.0156,121.6589,-13.7,85,4,1.1,CN,1706302305
533,cam ranh,11.9214,109.1591,23.98,69,20,4.63,VN,1706302306
534,maintirano,-18.0667,44.0167,26.33,79,9,3.42,MG,1706302306
535,urengoy,65.9667,78.3667,-19.6,99,100,2.83,RU,1706302306
536,geraldton,-28.7667,114.6,20.23,49,0,3.09,AU,1706302306
537,norilsk,69.3535,88.2027,-13.65,87,100,7.66,RU,1706302307
538,margate,51.3813,1.3862,5.39,67,0,1.79,GB,1706302159
539,chipinge,-20.1883,32.6236,15.71,72,0,1.23,ZW,1706302307
540,pasuquin,18.3328,120.6177,15.97,94,20,1.03,PH,1706302307
541,zarqa,32.0728,36.088,8.95,93,75,5.14,JO,1706302307
542,tual,-5.6667,132.75,28.55,75,100,8.49,ID,1706302308
543,jiazi,22.8779,116.067,13.38,75,93,5.83,CN,1706302308
544,tukrah,32.5341,20.5791,14.7,72,0,5.54,LY,1706302308
545,greenfield,42.9614,-88.0126,3.81,95,100,3.09,US,1706302039
546,vanimo,-2.6741,141.3028,25.28,91,100,2.84,PG,1706302308
547,nevel',56.0209,29.9284,-3.15,99,100,0.95,RU,1706302309
548,ciudad lazaro cardenas,17.9583,-102.2,28.32,59,0,4.2,MX,1706302138
549,fort st. john,56.2499,-120.8529,2.94,75,75,6.69,CA,1706302309
550,rio gallegos,-51.6226,-69.2181,27.03,17,0,11.83,AR,1706302309
551,rawlins,41.7911,-107.2387,0.94,69,0,4.12,US,1706302139
552,kasongo,-4.45,26.6667,21.0,95,85,1.21,CD,1706302310
553,ambon,-3.6954,128.1814,26.71,14,40,5.14,ID,1706302310
554,rabaul,-4.1967,152.1721,26.8,82,100,2.12,PG,1706302217
555,kiruna,67.8557,20.2251,-15.49,85,100,1.54,SE,1706302311
556,burutu,5.3509,5.5076,26.55,61,5,1.65,NG,1706302311
557,hinche,19.15,-72.0167,29.94,38,0,6.14,HT,1706302311
558,ubari,26.5921,12.7805,13.51,40,0,2.69,LY,1706302311
559,tokar,18.4254,37.729,21.43,60,100,4.03,SD,1706302312
560,colac,-38.3333,143.5833,12.13,78,47,3.61,AU,1706302079
561,sisimiut,66.9395,-53.6735,-17.71,94,99,2.99,GL,1706302312
562,wynyard,-41.0,145.7167,13.7,80,85,6.54,AU,1706302312
563,ajdabiya,30.7554,20.2263,14.61,78,0,3.8,LY,1706302312
564,hirara,24.8,125.2833,16.92,77,75,5.66,JP,1706302313
565,akropong,5.9746,-0.0854,26.53,49,18,1.2,GH,1706302313
566,chegdomyn,51.1167,133.0167,-28.25,100,24,0.84,RU,1706302313
567,kitimat,54.0524,-128.6534,3.71,65,100,0.76,CA,1706302313
568,deer valley,33.6861,-112.1186,20.28,38,0,1.79,US,1706302313
569,leer,53.2316,7.461,6.11,87,9,0.45,DE,1706302314
570,long branch,40.3043,-73.9924,8.1,93,100,2.06,US,1706302314
571,hacienda huancane,-15.8222,-70.8856,10.47,60,93,4.46,PE,1706302314
572,sao joao da barra,-21.6403,-41.0511,28.05,83,100,5.03,BR,1706302314
